{"data":[{"id":"692ac9e0-ab15-11ea-8de6-bf747d02c563","pb_id":"ny-newyorkcity-29","state":"New York","city":"New York City","date":"2020-05-31T00:00:00.000000Z","title":"NYPD denies 6th amendment rights to protestors","description":null,"links":["https:\/\/twitter.com\/GoodCallNYC\/status\/1267128759951523846"],"data":null,"geocoding":{"lat":"40.7127753","long":"-74.0059728"}},{"id":"7b124e70-a9d6-11ea-af28-31d7182e447f","pb_id":"ny-buffalo-1","state":"New York","city":"Buffalo","date":"2020-06-01T00:00:00.000000Z","title":"Police tackle man giving interview","description":null,"links":["https:\/\/twitter.com\/secretlaith\/status\/1268251322467450880"],"data":null,"geocoding":{"lat":"42.8864468","long":"-78.8783689"}},{"id":"7b126be0-a9d6-11ea-983d-5d6605581ae0","pb_id":"ny-buffalo-2","state":"New York","city":"Buffalo","date":"2020-06-04T00:00:00.000000Z","title":"Police shove elderly man, causing him to fall and hit the back of his head","description":null,"links":["https:\/\/twitter.com\/WBFO\/status\/1268712530358292484","https:\/\/news.wbfo.org\/post\/graphic-video-buffalo-police-officers-violently-shove-man-ground","https:\/\/www.facebook.com\/watch\/?ref=external&v=2489206818056597","https:\/\/www.wivb.com\/news\/five-people-arrested-one-person-injured-during-protest-activity-in-niagara-square\/","https:\/\/www.reddit.com\/r\/PublicFreakout\/comments\/gwv7k4\/just_about_an_hour_ago_police_officers_shove_man\/fsxfeb3\/"],"data":null,"geocoding":{"lat":"42.8864468","long":"-78.8783689"}},{"id":"7b12be90-a9d6-11ea-8585-4d768b128868","pb_id":"ny-rochester-3","state":"New York","city":"Rochester","date":"2020-05-31T00:00:00.000000Z","title":"Police shoot at people filming","description":null,"links":["https:\/\/twitter.com\/bleeezyy_\/status\/1266894195865931778"],"data":null,"geocoding":{"lat":"43.1565779","long":"-77.6088465"}},{"id":"7b12de80-a9d6-11ea-a7dc-27a3195f3190","pb_id":"ny-newyorkcity-12","state":"New York","city":"New York City","date":"2020-05-31T00:00:00.000000Z","title":"State senator pepper sprayed","description":null,"links":["https:\/\/twitter.com\/zellnor4ny\/status\/1266802303807500288"],"data":null,"geocoding":{"lat":"40.7127753","long":"-74.0059728"}},{"id":"7b131780-a9d6-11ea-8ea7-55ef5c7cf420","pb_id":"ny-newyorkcity-13","state":"New York","city":"New York City","date":"2020-05-29T00:00:00.000000Z","title":"Police drive by man and hit him with car door","description":null,"links":["https:\/\/twitter.com\/DriveWendys\/status\/1266555286678048770"],"data":null,"geocoding":{"lat":"40.7127753","long":"-74.0059728"}},{"id":"7b133810-a9d6-11ea-bb7e-ef01e445deea","pb_id":"ny-newyorkcity-17","state":"New York","city":"New York City","date":"2020-05-31T00:00:00.000000Z","title":"Officers beat man until his face and belongings are bloody","description":null,"links":["https:\/\/wapo.st\/2Mx7WY6","https:\/\/www.washingtonpost.com\/national\/protests-police-brutality-video\/2020\/06\/05\/a9e66568-a768-11ea-b473-04905b1af82b_story.html"],"data":null,"geocoding":{"lat":"40.7127753","long":"-74.0059728"}},{"id":"7b136240-a9d6-11ea-92a6-8fb8276911f2","pb_id":"ny-newyorkcity-5","state":"New York","city":"New York City","date":"2020-05-30T00:00:00.000000Z","title":"NYPD beat people with batons","description":null,"links":["https:\/\/twitter.com\/j0ncampbell\/status\/1266514356071735296"],"data":null,"geocoding":{"lat":"40.7127753","long":"-74.0059728"}},{"id":"7b138c20-a9d6-11ea-a55a-31b63006187c","pb_id":"ny-newyorkcity-7","state":"New York","city":"New York City","date":"2020-05-30T00:00:00.000000Z","title":"Cop shoving a person to the ground towards metal trash bins","description":null,"links":["https:\/\/twitter.com\/crankberries\/status\/1266584559245803522","https:\/\/twitter.com\/greg_doucette\/status\/1266850004720812032"],"data":null,"geocoding":{"lat":"40.7127753","long":"-74.0059728"}},{"id":"7b13acb0-a9d6-11ea-933e-156b443e3668","pb_id":"ny-newyorkcity-8","state":"New York","city":"New York City","date":"2020-05-30T00:00:00.000000Z","title":"Huffpost reporter is arrested by NYPD","description":null,"links":["https:\/\/twitter.com\/HuffPost\/status\/1266936484692725766","https:\/\/www.huffpost.com\/entry\/huffpost-reporter-chris-mathias-arrested_n_5ed320d9c5b640cb8341c921"],"data":null,"geocoding":{"lat":"40.7127753","long":"-74.0059728"}},{"id":"7b13d6d0-a9d6-11ea-b35d-1d11412d53f0","pb_id":"ny-newyorkcity-9","state":"New York","city":"New York City","date":"2020-05-31T00:00:00.000000Z","title":"Police pull off protesters mask to pepper spray him","description":null,"links":["https:\/\/twitter.com\/_doreenpt\/status\/1266994439039455232"],"data":null,"geocoding":{"lat":"40.7127753","long":"-74.0059728"}},{"id":"7b1403f0-a9d6-11ea-b6b4-f757369fa9c7","pb_id":"ny-newyorkcity-16","state":"New York","city":"New York City","date":"2020-05-31T00:00:00.000000Z","title":"Police injure journalist","description":null,"links":["https:\/\/twitter.com\/tylergabriel_\/status\/1267287516345925632"],"data":null,"geocoding":{"lat":"40.7127753","long":"-74.0059728"}},{"id":"7b143080-a9d6-11ea-bee5-0bcf25f709ae","pb_id":"ny-newyorkcity-6","state":"New York","city":"New York City","date":"2020-05-30T00:00:00.000000Z","title":"Cop shoves a guy into a metal fence","description":null,"links":["https:\/\/twitter.com\/ZachReports\/status\/1266557305107202049","https:\/\/twitter.com\/BTSsavedmylife9\/status\/1266754310161006594"],"data":null,"geocoding":{"lat":"40.7127753","long":"-74.0059728"}},{"id":"7b145ba0-a9d6-11ea-ab25-af586e040c49","pb_id":"ny-newyorkcity-10","state":"New York","city":"New York City","date":"2020-05-31T00:00:00.000000Z","title":"NYPD rams protesters","description":null,"links":["https:\/\/twitter.com\/pgarapon\/status\/1266885414016688134","https:\/\/twitter.com\/mkultranews\/status\/1266893237450498048"],"data":null,"geocoding":{"lat":"40.7127753","long":"-74.0059728"}},{"id":"7b148780-a9d6-11ea-be14-39a841bfd087","pb_id":"ny-newyorkcity-11","state":"New York","city":"New York City","date":"2020-05-31T00:00:00.000000Z","title":"Police assault protesters","description":null,"links":["https:\/\/twitter.com\/theactivistTati\/status\/1266889419858075649"],"data":null,"geocoding":{"lat":"40.7127753","long":"-74.0059728"}},{"id":"7b14a4b0-a9d6-11ea-acca-3fe6a717c49a","pb_id":"ny-newyorkcity-14","state":"New York","city":"New York City","date":"2020-05-31T00:00:00.000000Z","title":"State senator pepper sprayed","description":null,"links":["https:\/\/twitter.com\/zellnor4ny\/status\/1266802303807500288"],"data":null,"geocoding":{"lat":"40.7127753","long":"-74.0059728"}},{"id":"7b14c1b0-a9d6-11ea-8b00-d3b65111f651","pb_id":"ny-newyorkcity-15","state":"New York","city":"New York City","date":"2020-05-31T00:00:00.000000Z","title":"Protesters with hands up assaulted by police","description":null,"links":["https:\/\/www.reddit.com\/r\/2020PoliceBrutality\/comments\/gu2u28\/more_documented_aggression_in_flatbush_brooklyn\/"],"data":null,"geocoding":{"lat":"40.7127753","long":"-74.0059728"}},{"id":"7b14e200-a9d6-11ea-8da0-9f805965fd65","pb_id":"ny-newyorkcity-24","state":"New York","city":"New York City","date":"2020-06-04T00:00:00.000000Z","title":"Officers arrest cyclists; a man who questions police is clubbed in the neck","description":null,"links":["https:\/\/twitter.com\/sa0un\/status\/1268933117827571714"],"data":null,"geocoding":{"lat":"40.7127753","long":"-74.0059728"}},{"id":"7b14ff30-a9d6-11ea-9706-73de815e3952","pb_id":"no-id-XOiksWqQ","state":"New York","city":"New York City","date":"2020-05-31T00:00:00.000000Z","title":"Officers beat man until his face and belongings are bloody","description":null,"links":["https:\/\/wapo.st\/2Mx7WY6","https:\/\/www.washingtonpost.com\/national\/protests-police-brutality-video\/2020\/06\/05\/a9e66568-a768-11ea-b473-04905b1af82b_story.html"],"data":null,"geocoding":{"lat":"40.7127753","long":"-74.0059728"}},{"id":"7b1528d0-a9d6-11ea-9175-fd953c1aba2b","pb_id":"ny-newyorkcity-18","state":"New York","city":"New York City","date":"2020-06-01T00:00:00.000000Z","title":"Officer threatens protestors with what appears to be a handgun","description":null,"links":["https:\/\/mobile.twitter.com\/jangelooff\/status\/1267308341660979200"],"data":null,"geocoding":{"lat":"40.7127753","long":"-74.0059728"}},{"id":"7b1545c0-a9d6-11ea-b1bc-75e627c0e8fc","pb_id":"ny-newyorkcity-4","state":"New York","city":"New York City","date":"2020-05-30T00:00:00.000000Z","title":"Police officer throws man against police car","description":null,"links":["https:\/\/twitter.com\/Stoney_Holiday\/status\/1266616250685444096","https:\/\/www.instagram.com\/p\/CAzSOtGlKQY\/"],"data":null,"geocoding":{"lat":"40.7127753","long":"-74.0059728"}},{"id":"7b157140-a9d6-11ea-9a20-5d6cbb4e8b8a","pb_id":"ny-newyorkcity-19","state":"New York","city":"New York City","date":"2020-06-02T00:00:00.000000Z","title":"Police officer body slams protestor","description":null,"links":["https:\/\/twitter.com\/jhermann\/status\/1268043720399691776","https:\/\/twitter.com\/altochulo\/status\/1268018561571840000"],"data":null,"geocoding":{"lat":"40.7127753","long":"-74.0059728"}},{"id":"7b158e10-a9d6-11ea-b1d1-b342dc377cba","pb_id":"ny-newyorkcity-20","state":"New York","city":"New York City","date":"2020-06-02T00:00:00.000000Z","title":"Police beat protesters leaving Stonewall Inn solidarity protest","description":null,"links":["https:\/\/www.lgbtqnation.com\/2020\/06\/cops-beat-lgbtq-protestors-leaving-demonstration-stonewall-inn\/"],"data":null,"geocoding":{"lat":"40.7127753","long":"-74.0059728"}},{"id":"7b15b790-a9d6-11ea-bf07-83605b53eb68","pb_id":"ny-newyorkcity-21","state":"New York","city":"New York City","date":"2020-06-02T00:00:00.000000Z","title":"Officers beat man with batons","description":null,"links":["https:\/\/www.reddit.com\/r\/newyorkcity\/comments\/gv8aft\/police_beat_man_without_even_attempting_to_arrest\/","https:\/\/www.reddit.com\/r\/PublicFreakout\/comments\/gv43ar\/police_beat_man_without_even_attempting_to_arrest\/"],"data":null,"geocoding":{"lat":"40.7127753","long":"-74.0059728"}},{"id":"7b15e330-a9d6-11ea-9beb-f58aa91dffb8","pb_id":"ny-newyorkcity-22","state":"New York","city":"New York City","date":"2020-06-03T00:00:00.000000Z","title":"Man walking his bike beaten by officers with batons","description":null,"links":["https:\/\/twitter.com\/joshfoxfilm\/status\/1268366550475603969","https:\/\/www.dailymail.co.uk\/news\/article-8388515\/NYPD-cop-beats-cyclist-nightstick-tries-away.html"],"data":null,"geocoding":{"lat":"40.7127753","long":"-74.0059728"}},{"id":"7b1602c0-a9d6-11ea-b615-d7b199e864ae","pb_id":"ny-newyorkcity-25","state":"New York","city":"New York City","date":"2020-06-05T00:00:00.000000Z","title":"NYPD pushes crowd into tight space and attacks several with batons","description":null,"links":["https:\/\/twitter.com\/AndomForNY\/status\/1269065176814358529"],"data":null,"geocoding":{"lat":"40.7127753","long":"-74.0059728"}},{"id":"7b162260-a9d6-11ea-866d-ab314e0ea5c5","pb_id":"ny-newyorkcity-23","state":"New York","city":"New York City","date":"2020-06-04T00:00:00.000000Z","title":"NYPD Officers hit and knock down a protestor and a journalist","description":null,"links":["https:\/\/twitter.com\/johnknefel\/status\/1268736946031001607"],"data":null,"geocoding":{"lat":"40.7127753","long":"-74.0059728"}},{"id":"b4333a40-aa88-11ea-82d5-55f5c032d999","pb_id":"ny-buffalo-3","state":"New York","city":"Buffalo","date":"2020-06-05T00:00:00.000000Z","title":"Reporter shot at after identifying himself","description":null,"links":["https:\/\/twitter.com\/PhotoJazzy\/status\/1269056626843099137"],"data":null,"geocoding":{"lat":"42.8864468","long":"-78.8783689"}},{"id":"b4339140-aa88-11ea-8c6e-a10b79f0c5e8","pb_id":"ny-newyorkcity-1","state":"New York","city":"New York City","date":"2020-05-29T00:00:00.000000Z","title":"Police shove woman to the ground, inducing a seizure","description":null,"links":["https:\/\/twitter.com\/whitney_hu\/status\/1266540710188195843","https:\/\/twitter.com\/JasonLemon\/status\/1266529475757510656","https:\/\/twitter.com\/zayer_dounya\/status\/1266581597760831489"],"data":null,"geocoding":{"lat":"40.7127753","long":"-74.0059728"}},{"id":"b4343cc0-aa88-11ea-a4f3-f7fcb90a543f","pb_id":"ny-newyorkcity-2","state":"New York","city":"New York City","date":"2020-05-29T00:00:00.000000Z","title":"Police drive by man and hit him with car door","description":null,"links":["https:\/\/twitter.com\/DriveWendys\/status\/1266555286678048770"],"data":null,"geocoding":{"lat":"40.7127753","long":"-74.0059728"}},{"id":"b4348f00-aa88-11ea-9612-2342cd30be13","pb_id":"ny-newyorkcity-3","state":"New York","city":"New York City","date":"2020-05-29T00:00:00.000000Z","title":"Member of the New York State Assembly pepper-sprayed","description":null,"links":["https:\/\/www.cityandstateny.com\/articles\/politics\/news-politics\/even-black-lawmakers-get-pepper-sprayed.html","https:\/\/twitter.com\/GwynneFitz\/status\/1266522692326428672"],"data":null,"geocoding":{"lat":"40.7127753","long":"-74.0059728"}},{"id":"b43b1c40-aa88-11ea-981f-7b0f876530b8","pb_id":"ny-newyorkcity-26","state":"New York","city":"New York City","date":"2020-06-06T00:00:00.000000Z","title":"Multiple police officers tackle cyclist protester one officer punches head of protester","description":null,"links":["https:\/\/www.reddit.com\/r\/Brooklyn\/comments\/gy40fz\/nypd_aggressively_arrest_cyclist_on_blm_group_ride\/?utm_source=share&utm_medium=web2x"],"data":null,"geocoding":{"lat":"40.7127753","long":"-74.0059728"}},{"id":"b43b67e0-aa88-11ea-969a-1722c3fe890f","pb_id":"ny-rochester-1","state":"New York","city":"Rochester","date":"2020-05-31T00:00:00.000000Z","title":"Police shoot at people filming","description":null,"links":["https:\/\/twitter.com\/bleeezyy_\/status\/1266894195865931778"],"data":null,"geocoding":{"lat":"43.1565779","long":"-77.6088465"}},{"id":"c0cb5a80-aaad-11ea-ade4-b30c90d125f4","pb_id":"ny-newyorkcity-27","state":"New York","city":"New York City","date":"2020-05-30T00:00:00.000000Z","title":"High-ranking NYPD officer shoves protestors with plastic barricade","description":null,"links":["https:\/\/twitter.com\/letsgomathias\/status\/1266903135303450631"],"data":null,"geocoding":{"lat":"40.7127753","long":"-74.0059728"}},{"id":"c0cc5900-aaad-11ea-90df-b16a74f53ff7","pb_id":"ny-newyorkcity-28","state":"New York","city":"New York City","date":"2020-05-30T00:00:00.000000Z","title":"Street medic is arrested","description":null,"links":["https:\/\/twitter.com\/PNickCurran\/status\/1266966295653777408"],"data":null,"geocoding":{"lat":"40.7127753","long":"-74.0059728"}}],"meta":{"about":["8 minutes and 46 seconds is the length of time associated with the killing of George Floyd,","who died in police custody after police officer Derek Chauvin knelt on his neck for roughly eight minutes.","This repo provides and API and archives acts of assault by public servants to American Citizens during non-violent acts of protest."],"more":["\u2022 This project does not condone acts aggression of any parties","\u2022 This project is meant to enable others to share their voice and stand-up against acts of violence by public servants","\u2022 This project intends to fight censorship by encouraging all to get involved and mirror this data, download the media, and fight for progress","\u2022 This project is not anti-police","\u2022 This project is a public work dedicated to all of humanity, regardless of race, creed, or borders."],"get_involved":{"reddit":"https:\/\/www.reddit.com\/r\/2020PoliceBrutality\/","collaboration":"https:\/\/github.com\/2020PB\/police-brutality"}}}